[
  {
    "property_id": "9662821568",
    "listing_id": "2942836426",
    "prop_type": "single_family",
    "address": "253-15 148 Dr Unit 2ND, Rosedale, 11422",
    "address_full": {
      "city": "Rosedale",
      "country": "USA",
      "county": "Queens",
      "county_needed_for_uniq": false,
      "line": "253-15 148 Dr Unit 2ND",
      "postal_code": "11422",
      "state_code": "NY",
      "state": "New York",
      "long": -73.736171,
      "lat": 40.660619,
      "is_approximate": true,
      "time_zone": "America/New_York"
    },
    "prop_status": "for_rent",
    "price": 800,
    "beds": "1",
    "baths": "2",
    "area": "sq ft N/A",
    "image": "https://ap.rdcpix.com/f5bd941bf349d4477ef3ee1a58067032l-m3233163294o.jpg",
    "name": "single_family for rent",
    "checkIn": "2022-07-14"
  },
  {
    "property_id": "9824168904",
    "listing_id": "2943789884",
    "prop_type": "single_family",
    "address": "198-14 Linden Blvd in St. Albans, Saint Albans, 11412",
    "address_full": {
      "city": "Saint Albans",
      "country": "USA",
      "county": "Queens",
      "county_needed_for_uniq": false,
      "lat": 40.693833,
      "line": "198-14 Linden Blvd",
      "long": -73.753612,
      "postal_code": "11412",
      "state_code": "NY",
      "state": "New York",
      "time_zone": "America/New_York"
    },
    "prop_status": "for_rent",
    "price": 850,
    "beds": "S",
    "baths": "1",
    "area": "sq ft N/A",
    "image": "https://ap.rdcpix.com/fcef40b885669050c2e002f058eb611al-m2240920824o.jpg",
    "name": "single_family for rent",
    "checkIn": "2022-07-19"
  },
  {
    "property_id": "3302298794",
    "listing_id": "2944181210",
    "prop_type": "single_family",
    "address": "4418 Baychester Ave in Wakefield, White Plains, 10466",
    "address_full": {
      "city": "White Plains",
      "country": "USA",
      "county": "Bronx",
      "county_needed_for_uniq": false,
      "lat": 40.899892,
      "line": "4418 Baychester Ave",
      "long": -73.845956,
      "postal_code": "10466",
      "state_code": "NY",
      "state": "New York",
      "time_zone": "America/New_York"
    },
    "prop_status": "for_rent",
    "price": 1000,
    "beds": "S",
    "baths": "2",
    "area": "sq ft N/A",
    "image": "https://ap.rdcpix.com/ef6d8675dfe3e1f82dd7a84a400d55d8l-m4084924655o.jpg",
    "name": "single_family for rent",
    "checkIn": "2022-07-14"
  },
  {
    "property_id": "9843903172",
    "listing_id": "2944332421",
    "prop_type": "single_family",
    "address": "Lincoln Pl in North Slope, Brooklyn, 11213",
    "address_full": {
      "city": "Brooklyn",
      "country": "USA",
      "county": "Kings",
      "county_needed_for_uniq": false,
      "lat": 40.6750032,
      "line": "Lincoln Pl",
      "long": -73.9727235,
      "postal_code": "11213",
      "state_code": "NY",
      "state": "New York",
      "time_zone": "America/New_York"
    },
    "prop_status": "for_rent",
    "price": 1000,
    "beds": "1",
    "baths": "1",
    "area": "sq ft N/A",
    "image": "https://ap.rdcpix.com/05204fdfc27d9b734541f18f6ec35130l-m1226677738o.jpg",
    "name": "single_family for rent",
    "checkIn": "2022-07-09"
  },
  {
    "property_id": "9504805931",
    "listing_id": "2940220017",
    "prop_type": "single_family",
    "address": "Beach 44 St, Far Rockaway, 11691",
    "address_full": {
      "city": "Far Rockaway",
      "country": "USA",
      "county": "Queens",
      "county_needed_for_uniq": false,
      "line": "Beach 44 St",
      "postal_code": "11691",
      "state_code": "NY",
      "state": "New York",
      "long": -73.762067,
      "lat": 40.600846,
      "is_approximate": true,
      "time_zone": "America/New_York"
    },
    "prop_status": "for_rent",
    "price": 1000,
    "beds": "S",
    "baths": "Call",
    "area": "sq ft N/A",
    "image": "https://ap.rdcpix.com/d995cc5015fef2a79d23dc6e54cf9becl-m3206196144o.jpg",
    "name": "single_family for rent",
    "checkIn": "2022-07-10"
  },
  {
    "property_id": "4009270255",
    "listing_id": "2944009512",
    "prop_type": "single_family",
    "address": "220 Beach 30th St in Far Rockaway, Far Rockaway, 11691",
    "address_full": {
      "city": "Far Rockaway",
      "country": "USA",
      "county": "Queens",
      "county_needed_for_uniq": false,
      "lat": 40.595396,
      "line": "220 Beach 30th St",
      "long": -73.762633,
      "postal_code": "11691",
      "state_code": "NY",
      "state": "New York",
      "time_zone": "America/New_York"
    },
    "prop_status": "for_rent",
    "price": 1000,
    "beds": "3",
    "baths": "1",
    "area": "sq ft N/A",
    "image": "https://ap.rdcpix.com/a2afb71d4806d5c273ca18250a4c1ce0l-m4165919048o.jpg",
    "name": "single_family for rent",
    "checkIn": "2022-07-16"
  },
  {
    "property_id": "9496957187",
    "listing_id": "2937483559",
    "prop_type": "single_family",
    "address": "939 E 102nd St Unit Room in Canarsie, Brooklyn, 11236",
    "address_full": {
      "city": "Brooklyn",
      "country": "USA",
      "county": "Kings",
      "county_needed_for_uniq": false,
      "lat": 40.645472,
      "line": "939 E 102nd St Unit Room",
      "long": -73.895831,
      "postal_code": "11236",
      "state_code": "NY",
      "state": "New York",
      "time_zone": "America/New_York"
    },
    "prop_status": "for_rent",
    "price": 1000,
    "beds": "1",
    "baths": "2",
    "area": "sq ft N/A",
    "image": "https://ap.rdcpix.com/efbb981c4bba24fcf9706348debd5174l-m3381898784o.jpg",
    "name": "single_family for rent",
    "checkIn": "2022-07-08"
  },
  {
    "property_id": "4654757497",
    "listing_id": "2931444792",
    "prop_type": "single_family",
    "address": "12402 153rd St in South Jamaica, Jamaica, 11434",
    "address_full": {
      "city": "Jamaica",
      "country": "USA",
      "county": "Queens",
      "county_needed_for_uniq": false,
      "lat": 40.675491,
      "line": "12402 153rd St",
      "long": -73.788401,
      "postal_code": "11434",
      "state_code": "NY",
      "state": "New York",
      "time_zone": "America/New_York"
    },
    "prop_status": "for_rent",
    "price": 1040,
    "beds": "1",
    "baths": "1",
    "area": "sq ft N/A",
    "image": "https://ap.rdcpix.com/e450e40b85616b5a3009b0b64ad48c6el-m1465047801o.jpg",
    "name": "single_family for rent",
    "checkIn": "2022-07-17"
  },
  {
    "property_id": "4752458585",
    "listing_id": "598654625",
    "prop_type": "apartment",
    "address": "110 Astoria Blvd, null, 11369",
    "address_full": {
      "city": null,
      "country": "USA",
      "county_needed_for_uniq": false,
      "line": "110 Astoria Blvd",
      "postal_code": "11369",
      "state_code": "NY",
      "state": "New York",
      "long": -73.872465,
      "lat": 40.76382,
      "is_approximate": true,
      "time_zone": "America/New_York"
    },
    "prop_status": "for_rent",
    "price": 640,
    "beds": "1",
    "baths": "1",
    "area": "sq ft N/A",
    "image": "https://ap.rdcpix.com/903893595/d26b394df8d63c696b0ff6842b75ece9l-m0o.jpg",
    "name": "apartment for rent",
    "checkIn": "2022-07-14"
  },
  {
    "property_id": "4665651684",
    "listing_id": "598654621",
    "prop_type": "apartment",
    "address": "1091 Gates Ave in Bushwick, Brooklyn, 11221",
    "address_full": {
      "city": "Brooklyn",
      "country": "USA",
      "county": "Kings",
      "county_needed_for_uniq": false,
      "lat": 40.690291,
      "line": "1091 Gates Ave",
      "long": -73.92147,
      "postal_code": "11221",
      "state_code": "NY",
      "state": "New York",
      "time_zone": "America/New_York"
    },
    "prop_status": "for_rent",
    "price": 676,
    "beds": "1",
    "baths": "1",
    "area": "sq ft N/A",
    "image": "https://ap.rdcpix.com/1832898771/2305acfd25e42adf4e44796229894b2el-m0o.jpg",
    "name": "apartment for rent",
    "checkIn": "2022-07-10"
  },
  {
    "property_id": "9662821568",
    "listing_id": "2942836426",
    "prop_type": "single_family",
    "address": "253-15 148 Dr Unit 2ND, Rosedale, 11422",
    "address_full": {
      "city": "Rosedale",
      "country": "USA",
      "county": "Queens",
      "county_needed_for_uniq": false,
      "line": "253-15 148 Dr Unit 2ND",
      "postal_code": "11422",
      "state_code": "NY",
      "state": "New York",
      "long": -73.736171,
      "lat": 40.660619,
      "is_approximate": true,
      "time_zone": "America/New_York"
    },
    "prop_status": "for_rent",
    "price": 800,
    "beds": "1",
    "baths": "2",
    "area": "sq ft N/A",
    "image": "https://ap.rdcpix.com/f5bd941bf349d4477ef3ee1a58067032l-m3233163294o.jpg",
    "name": "single_family for rent",
    "checkIn": "2022-07-09"
  },
  {
    "property_id": "9603907474",
    "listing_id": "2940202588",
    "prop_type": "apartment",
    "address": "888 Belmont Ave in East New York, Brooklyn, 11208",
    "address_full": {
      "city": "Brooklyn",
      "country": "USA",
      "county": "Kings",
      "county_needed_for_uniq": false,
      "lat": 40.673254,
      "line": "888 Belmont Ave",
      "long": -73.876244,
      "postal_code": "11208",
      "state_code": "NY",
      "state": "New York",
      "time_zone": "America/New_York"
    },
    "prop_status": "for_rent",
    "price": 800,
    "beds": "1",
    "baths": "1",
    "area": "sq ft N/A",
    "image": "https://ap.rdcpix.com/0095043cfb85098220d8419ecd3c6a55l-m887531396o.jpg",
    "name": "apartment for rent",
    "checkIn": "2022-07-21"
  },
  {
    "property_id": "9824168904",
    "listing_id": "2943789884",
    "prop_type": "single_family",
    "address": "198-14 Linden Blvd in St. Albans, Saint Albans, 11412",
    "address_full": {
      "city": "Saint Albans",
      "country": "USA",
      "county": "Queens",
      "county_needed_for_uniq": false,
      "lat": 40.693833,
      "line": "198-14 Linden Blvd",
      "long": -73.753612,
      "postal_code": "11412",
      "state_code": "NY",
      "state": "New York",
      "time_zone": "America/New_York"
    },
    "prop_status": "for_rent",
    "price": 850,
    "beds": "S",
    "baths": "1",
    "area": "sq ft N/A",
    "image": "https://ap.rdcpix.com/fcef40b885669050c2e002f058eb611al-m2240920824o.jpg",
    "name": "single_family for rent",
    "checkIn": "2022-07-09"
  },
  {
    "property_id": "3462530088",
    "listing_id": "2935965171",
    "prop_type": "apartment",
    "address": "823 Saratoga Ave in Brownsville, Brownville, 11212",
    "address_full": {
      "city": "Brownville",
      "country": "USA",
      "county": "Kings",
      "county_needed_for_uniq": false,
      "lat": 40.660595,
      "line": "823 Saratoga Ave",
      "long": -73.914904,
      "postal_code": "11212",
      "state_code": "NY",
      "state": "New York",
      "time_zone": "America/New_York"
    },
    "prop_status": "for_rent",
    "price": 875,
    "beds": "S",
    "baths": "1",
    "area": "200 sq ft",
    "image": "https://ar.rdcpix.com/b87aaad91e161e353be64d1f36456982l-f1193670864o.jpg",
    "name": "apartment for rent",
    "checkIn": "2022-07-11"
  },
  {
    "property_id": "9673050402",
    "listing_id": "2937172084",
    "prop_type": "apartment",
    "address": "121 Lewis Ave Apt 2 in Bedford-Stuyvesant, Brooklyn, 11221",
    "address_full": {
      "city": "Brooklyn",
      "country": "USA",
      "county": "Kings",
      "county_needed_for_uniq": false,
      "lat": 40.692661,
      "line": "121 Lewis Ave Apt 2",
      "long": -73.936718,
      "postal_code": "11221",
      "state_code": "NY",
      "state": "New York",
      "time_zone": "America/New_York"
    },
    "prop_status": "for_rent",
    "price": 950,
    "beds": "1",
    "baths": "1",
    "area": "sq ft N/A",
    "image": "https://ap.rdcpix.com/03cdc51f63004ea113ff2e0929d76059l-m3101862149o.jpg",
    "name": "apartment for rent",
    "checkIn": "2022-07-08"
  },
  {
    "property_id": "4752458585",
    "listing_id": "598654625",
    "prop_type": "apartment",
    "address": "110 Astoria Blvd, null, 11369",
    "address_full": {
      "city": null,
      "country": "USA",
      "county_needed_for_uniq": false,
      "line": "110 Astoria Blvd",
      "postal_code": "11369",
      "state_code": "NY",
      "state": "New York",
      "long": -73.872465,
      "lat": 40.76382,
      "is_approximate": true,
      "time_zone": "America/New_York"
    },
    "prop_status": "for_rent",
    "price": 640,
    "beds": "1",
    "baths": "1",
    "area": "sq ft N/A",
    "image": "https://ap.rdcpix.com/903893595/d26b394df8d63c696b0ff6842b75ece9l-m0o.jpg",
    "name": "apartment for rent",
    "checkIn": "2022-07-10"
  },
  {
    "property_id": "4665651684",
    "listing_id": "598654621",
    "prop_type": "apartment",
    "address": "1091 Gates Ave in Bushwick, Brooklyn, 11221",
    "address_full": {
      "city": "Brooklyn",
      "country": "USA",
      "county": "Kings",
      "county_needed_for_uniq": false,
      "lat": 40.690291,
      "line": "1091 Gates Ave",
      "long": -73.92147,
      "postal_code": "11221",
      "state_code": "NY",
      "state": "New York",
      "time_zone": "America/New_York"
    },
    "prop_status": "for_rent",
    "price": 676,
    "beds": "1",
    "baths": "1",
    "area": "sq ft N/A",
    "image": "https://ap.rdcpix.com/1832898771/2305acfd25e42adf4e44796229894b2el-m0o.jpg",
    "name": "apartment for rent",
    "checkIn": "2022-07-09"
  },
  {
    "property_id": "9662821568",
    "listing_id": "2942836426",
    "prop_type": "single_family",
    "address": "253-15 148 Dr Unit 2ND, Rosedale, 11422",
    "address_full": {
      "city": "Rosedale",
      "country": "USA",
      "county": "Queens",
      "county_needed_for_uniq": false,
      "line": "253-15 148 Dr Unit 2ND",
      "postal_code": "11422",
      "state_code": "NY",
      "state": "New York",
      "long": -73.736171,
      "lat": 40.660619,
      "is_approximate": true,
      "time_zone": "America/New_York"
    },
    "prop_status": "for_rent",
    "price": 800,
    "beds": "1",
    "baths": "2",
    "area": "sq ft N/A",
    "image": "https://ap.rdcpix.com/f5bd941bf349d4477ef3ee1a58067032l-m3233163294o.jpg",
    "name": "single_family for rent",
    "checkIn": "2022-07-17"
  },
  {
    "property_id": "9603907474",
    "listing_id": "2940202588",
    "prop_type": "apartment",
    "address": "888 Belmont Ave in East New York, Brooklyn, 11208",
    "address_full": {
      "city": "Brooklyn",
      "country": "USA",
      "county": "Kings",
      "county_needed_for_uniq": false,
      "lat": 40.673254,
      "line": "888 Belmont Ave",
      "long": -73.876244,
      "postal_code": "11208",
      "state_code": "NY",
      "state": "New York",
      "time_zone": "America/New_York"
    },
    "prop_status": "for_rent",
    "price": 800,
    "beds": "1",
    "baths": "1",
    "area": "sq ft N/A",
    "image": "https://ap.rdcpix.com/0095043cfb85098220d8419ecd3c6a55l-m887531396o.jpg",
    "name": "apartment for rent",
    "checkIn": "2022-07-10"
  },
  {
    "property_id": "9824168904",
    "listing_id": "2943789884",
    "prop_type": "single_family",
    "address": "198-14 Linden Blvd in St. Albans, Saint Albans, 11412",
    "address_full": {
      "city": "Saint Albans",
      "country": "USA",
      "county": "Queens",
      "county_needed_for_uniq": false,
      "lat": 40.693833,
      "line": "198-14 Linden Blvd",
      "long": -73.753612,
      "postal_code": "11412",
      "state_code": "NY",
      "state": "New York",
      "time_zone": "America/New_York"
    },
    "prop_status": "for_rent",
    "price": 850,
    "beds": "S",
    "baths": "1",
    "area": "sq ft N/A",
    "image": "https://ap.rdcpix.com/fcef40b885669050c2e002f058eb611al-m2240920824o.jpg",
    "name": "single_family for rent",
    "checkIn": "2022-07-12"
  },
  {
    "property_id": "3462530088",
    "listing_id": "2935965171",
    "prop_type": "apartment",
    "address": "823 Saratoga Ave in Brownsville, Brownville, 11212",
    "address_full": {
      "city": "Brownville",
      "country": "USA",
      "county": "Kings",
      "county_needed_for_uniq": false,
      "lat": 40.660595,
      "line": "823 Saratoga Ave",
      "long": -73.914904,
      "postal_code": "11212",
      "state_code": "NY",
      "state": "New York",
      "time_zone": "America/New_York"
    },
    "prop_status": "for_rent",
    "price": 875,
    "beds": "S",
    "baths": "1",
    "area": "200 sq ft",
    "image": "https://ar.rdcpix.com/b87aaad91e161e353be64d1f36456982l-f1193670864o.jpg",
    "name": "apartment for rent",
    "checkIn": "2022-07-08"
  },
  {
    "property_id": "9673050402",
    "listing_id": "2937172084",
    "prop_type": "apartment",
    "address": "121 Lewis Ave Apt 2 in Bedford-Stuyvesant, Brooklyn, 11221",
    "address_full": {
      "city": "Brooklyn",
      "country": "USA",
      "county": "Kings",
      "county_needed_for_uniq": false,
      "lat": 40.692661,
      "line": "121 Lewis Ave Apt 2",
      "long": -73.936718,
      "postal_code": "11221",
      "state_code": "NY",
      "state": "New York",
      "time_zone": "America/New_York"
    },
    "prop_status": "for_rent",
    "price": 950,
    "beds": "1",
    "baths": "1",
    "area": "sq ft N/A",
    "image": "https://ap.rdcpix.com/03cdc51f63004ea113ff2e0929d76059l-m3101862149o.jpg",
    "name": "apartment for rent",
    "checkIn": "2022-07-10"
  },
  {
    "property_id": "9657796015",
    "listing_id": "2938716036",
    "prop_type": "condo",
    "address": "Rent 2 Reestablish in Auburn Gresham, O, 60620",
    "address_full": {
      "city": "O",
      "country": "USA",
      "county": "Cook",
      "county_needed_for_uniq": false,
      "lat": 41.7470143,
      "line": "Rent 2 Reestablish",
      "long": -87.6679765,
      "postal_code": "60620",
      "state_code": "IL",
      "state": "Illinois",
      "time_zone": "America/Chicago"
    },
    "prop_status": "for_rent",
    "price": 100,
    "beds": "S",
    "baths": "1",
    "area": "sq ft N/A",
    "image": "https://ap.rdcpix.com/ec5a94fb7fcb42d3294802be6100689el-m4186126570o.jpg",
    "name": "condo for rent",
    "checkIn": "2022-07-18"
  },
  {
    "property_id": "7454967667",
    "listing_id": "603606039",
    "prop_type": "apartment",
    "address": "5114 5118 S Kimbark Ave in Hyde Park Kenwood Historic District, Chicago, 60615",
    "address_full": {
      "city": "Chicago",
      "country": "USA",
      "county": "Cook",
      "county_needed_for_uniq": false,
      "lat": 41.801703,
      "line": "5114 5118 S Kimbark Ave",
      "long": -87.595093,
      "postal_code": "60615",
      "state_code": "IL",
      "state": "Illinois",
      "time_zone": "America/Chicago"
    },
    "prop_status": "for_rent",
    "price": 175,
    "beds": "S-1",
    "baths": "0-1",
    "area": "N/A sq ft",
    "image": "https://ar.rdcpix.com/ab23baa83454f40a291ef40f83830b09c-f3837329890o.jpg",
    "name": "Ettinger Realty, Ltd",
    "checkIn": "2022-07-10"
  },
  {
    "property_id": "9038084162",
    "listing_id": "2944186621",
    "prop_type": "condo",
    "address": "2251 S Michigan Ave Unit 205F in Near South Side, Chicago, 60616",
    "address_full": {
      "city": "Chicago",
      "country": "USA",
      "county": "Cook",
      "county_needed_for_uniq": false,
      "lat": 41.851417,
      "line": "2251 S Michigan Ave Unit 205F",
      "long": -87.623327,
      "postal_code": "60616",
      "state_code": "IL",
      "state": "Illinois",
      "time_zone": "America/Chicago"
    },
    "prop_status": "for_rent",
    "price": 400,
    "beds": "S",
    "baths": "1",
    "area": "200 sq ft",
    "image": "https://ap.rdcpix.com/11b44c7e953f5793c2d6a7192a83f5e1l-m2718460297o.jpg",
    "name": "condo for rent",
    "checkIn": "2022-07-13"
  },
  {
    "property_id": "7757677695",
    "listing_id": "642871303",
    "prop_type": "single_family",
    "address": "2246 S Ridgeway Ave in South Lawndale, Chicago, 60623",
    "address_full": {
      "city": "Chicago",
      "country": "USA",
      "county": "Cook",
      "county_needed_for_uniq": false,
      "lat": 41.850258,
      "line": "2246 S Ridgeway Ave",
      "long": -87.718994,
      "postal_code": "60623",
      "state_code": "IL",
      "state": "Illinois",
      "time_zone": "America/Chicago"
    },
    "prop_status": "for_rent",
    "price": 400,
    "beds": "S",
    "baths": "Call",
    "area": "sq ft N/A",
    "image": "https://ap.rdcpix.com/99ab60458ad1057d3fd9d7f2bea9c40fl-m2997465358o.jpg",
    "name": "single_family for rent",
    "checkIn": "2022-07-15"
  },
  {
    "property_id": "9656211627",
    "listing_id": "2925190115",
    "prop_type": "other",
    "address": "400 N Clark St in River North, Clawson, 60654",
    "address_full": {
      "city": "Clawson",
      "country": "USA",
      "county": "Cook",
      "county_needed_for_uniq": false,
      "lat": 41.889413,
      "line": "400 N Clark St",
      "long": -87.631358,
      "postal_code": "60654",
      "state_code": "IL",
      "state": "Illinois",
      "time_zone": "America/Chicago"
    },
    "prop_status": "for_rent",
    "price": 400,
    "beds": "1-2",
    "baths": "1",
    "area": "N/A sq ft",
    "image": "https://ar.rdcpix.com/14f53b24026a88dd7b223fab1614074bc-f394638694o.jpg",
    "name": "Maple View Apartments",
    "checkIn": "2022-07-09"
  },
  {
    "property_id": "7761627885",
    "listing_id": "642825975",
    "prop_type": "single_family",
    "address": "2238 S Ridgeway Ave in South Lawndale, Chicago, 60623",
    "address_full": {
      "city": "Chicago",
      "country": "USA",
      "county": "Cook",
      "county_needed_for_uniq": false,
      "lat": 41.850393,
      "line": "2238 S Ridgeway Ave",
      "long": -87.718971,
      "postal_code": "60623",
      "state_code": "IL",
      "state": "Illinois",
      "time_zone": "America/Chicago"
    },
    "prop_status": "for_rent",
    "price": 450,
    "beds": "S",
    "baths": "Call",
    "area": "sq ft N/A",
    "image": "https://ap.rdcpix.com/3cc87ed7463b06ec69ceda5efc95f045l-m3600300294o.jpg",
    "name": "single_family for rent",
    "checkIn": "2022-07-17"
  },
  {
    "property_id": "9650649557",
    "listing_id": "2937180695",
    "prop_type": "condo",
    "address": "1750 E 87th St in Stony Island Park, Chicago, 60617",
    "address_full": {
      "city": "Chicago",
      "country": "USA",
      "county": "Cook",
      "county_needed_for_uniq": false,
      "lat": 41.737244,
      "line": "1750 E 87th St",
      "long": -87.58081,
      "postal_code": "60617",
      "state_code": "IL",
      "state": "Illinois",
      "time_zone": "America/Chicago"
    },
    "prop_status": "for_rent",
    "price": 525,
    "beds": "S",
    "baths": "Call",
    "area": "420 sq ft",
    "image": "https://ap.rdcpix.com/3b8f3a61f9278ba0248128b5fce971afl-m4163094932o.jpg",
    "name": "condo for rent",
    "checkIn": "2022-07-18"
  },
  {
    "property_id": "7386507196",
    "listing_id": "607798379",
    "prop_type": "apartment",
    "address": "6244 S King Dr in Washington Park, Chicago, 60637",
    "address_full": {
      "city": "Chicago",
      "country": "USA",
      "county": "Cook",
      "county_needed_for_uniq": false,
      "lat": 41.78052,
      "line": "6244 S King Dr",
      "long": -87.61611,
      "postal_code": "60637",
      "state_code": "IL",
      "state": "Illinois",
      "time_zone": "America/Chicago"
    },
    "prop_status": "for_rent",
    "price": 535,
    "beds": "S",
    "baths": "1",
    "area": "250+ sq ft",
    "image": "https://ar.rdcpix.com/af501064fb3a05a2ac5af70209562ddfc-f96250950o.jpg",
    "name": "6246 S. King Dr.",
    "checkIn": "2022-07-15"
  },
  {
    "property_id": "9657796015",
    "listing_id": "2938716036",
    "prop_type": "condo",
    "address": "Rent 2 Reestablish in Auburn Gresham, O, 60620",
    "address_full": {
      "city": "O",
      "country": "USA",
      "county": "Cook",
      "county_needed_for_uniq": false,
      "lat": 41.7470143,
      "line": "Rent 2 Reestablish",
      "long": -87.6679765,
      "postal_code": "60620",
      "state_code": "IL",
      "state": "Illinois",
      "time_zone": "America/Chicago"
    },
    "prop_status": "for_rent",
    "price": 100,
    "beds": "S",
    "baths": "1",
    "area": "sq ft N/A",
    "image": "https://ap.rdcpix.com/ec5a94fb7fcb42d3294802be6100689el-m4186126570o.jpg",
    "name": "condo for rent",
    "checkIn": "2022-07-16"
  },
  {
    "property_id": "7454967667",
    "listing_id": "603606039",
    "prop_type": "apartment",
    "address": "5114 5118 S Kimbark Ave in Hyde Park Kenwood Historic District, Chicago, 60615",
    "address_full": {
      "city": "Chicago",
      "country": "USA",
      "county": "Cook",
      "county_needed_for_uniq": false,
      "lat": 41.801703,
      "line": "5114 5118 S Kimbark Ave",
      "long": -87.595093,
      "postal_code": "60615",
      "state_code": "IL",
      "state": "Illinois",
      "time_zone": "America/Chicago"
    },
    "prop_status": "for_rent",
    "price": 175,
    "beds": "S-1",
    "baths": "0-1",
    "area": "N/A sq ft",
    "image": "https://ar.rdcpix.com/ab23baa83454f40a291ef40f83830b09c-f3837329890o.jpg",
    "name": "Ettinger Realty, Ltd",
    "checkIn": "2022-07-14"
  },
  {
    "property_id": "9038084162",
    "listing_id": "2944186621",
    "prop_type": "condo",
    "address": "2251 S Michigan Ave Unit 205F in Near South Side, Chicago, 60616",
    "address_full": {
      "city": "Chicago",
      "country": "USA",
      "county": "Cook",
      "county_needed_for_uniq": false,
      "lat": 41.851417,
      "line": "2251 S Michigan Ave Unit 205F",
      "long": -87.623327,
      "postal_code": "60616",
      "state_code": "IL",
      "state": "Illinois",
      "time_zone": "America/Chicago"
    },
    "prop_status": "for_rent",
    "price": 400,
    "beds": "S",
    "baths": "1",
    "area": "200 sq ft",
    "image": "https://ap.rdcpix.com/11b44c7e953f5793c2d6a7192a83f5e1l-m2718460297o.jpg",
    "name": "condo for rent",
    "checkIn": "2022-07-21"
  },
  {
    "property_id": "9656211627",
    "listing_id": "2925190115",
    "prop_type": "other",
    "address": "400 N Clark St in River North, Clawson, 60654",
    "address_full": {
      "city": "Clawson",
      "country": "USA",
      "county": "Cook",
      "county_needed_for_uniq": false,
      "lat": 41.889413,
      "line": "400 N Clark St",
      "long": -87.631358,
      "postal_code": "60654",
      "state_code": "IL",
      "state": "Illinois",
      "time_zone": "America/Chicago"
    },
    "prop_status": "for_rent",
    "price": 400,
    "beds": "1-2",
    "baths": "1",
    "area": "N/A sq ft",
    "image": "https://ar.rdcpix.com/14f53b24026a88dd7b223fab1614074bc-f394638694o.jpg",
    "name": "Maple View Apartments",
    "checkIn": "2022-07-12"
  },
  {
    "property_id": "7757677695",
    "listing_id": "642871303",
    "prop_type": "single_family",
    "address": "2246 S Ridgeway Ave in South Lawndale, Chicago, 60623",
    "address_full": {
      "city": "Chicago",
      "country": "USA",
      "county": "Cook",
      "county_needed_for_uniq": false,
      "lat": 41.850258,
      "line": "2246 S Ridgeway Ave",
      "long": -87.718994,
      "postal_code": "60623",
      "state_code": "IL",
      "state": "Illinois",
      "time_zone": "America/Chicago"
    },
    "prop_status": "for_rent",
    "price": 400,
    "beds": "S",
    "baths": "Call",
    "area": "sq ft N/A",
    "image": "https://ap.rdcpix.com/99ab60458ad1057d3fd9d7f2bea9c40fl-m2997465358o.jpg",
    "name": "single_family for rent",
    "checkIn": "2022-07-21"
  },
  {
    "property_id": "7761627885",
    "listing_id": "642825975",
    "prop_type": "single_family",
    "address": "2238 S Ridgeway Ave in South Lawndale, Chicago, 60623",
    "address_full": {
      "city": "Chicago",
      "country": "USA",
      "county": "Cook",
      "county_needed_for_uniq": false,
      "lat": 41.850393,
      "line": "2238 S Ridgeway Ave",
      "long": -87.718971,
      "postal_code": "60623",
      "state_code": "IL",
      "state": "Illinois",
      "time_zone": "America/Chicago"
    },
    "prop_status": "for_rent",
    "price": 450,
    "beds": "S",
    "baths": "Call",
    "area": "sq ft N/A",
    "image": "https://ap.rdcpix.com/3cc87ed7463b06ec69ceda5efc95f045l-m3600300294o.jpg",
    "name": "single_family for rent",
    "checkIn": "2022-07-17"
  },
  {
    "property_id": "9650649557",
    "listing_id": "2937180695",
    "prop_type": "condo",
    "address": "1750 E 87th St in Stony Island Park, Chicago, 60617",
    "address_full": {
      "city": "Chicago",
      "country": "USA",
      "county": "Cook",
      "county_needed_for_uniq": false,
      "lat": 41.737244,
      "line": "1750 E 87th St",
      "long": -87.58081,
      "postal_code": "60617",
      "state_code": "IL",
      "state": "Illinois",
      "time_zone": "America/Chicago"
    },
    "prop_status": "for_rent",
    "price": 525,
    "beds": "S",
    "baths": "Call",
    "area": "420 sq ft",
    "image": "https://ap.rdcpix.com/3b8f3a61f9278ba0248128b5fce971afl-m4163094932o.jpg",
    "name": "condo for rent",
    "checkIn": "2022-07-09"
  },
  {
    "property_id": "7386507196",
    "listing_id": "607798379",
    "prop_type": "apartment",
    "address": "6244 S King Dr in Washington Park, Chicago, 60637",
    "address_full": {
      "city": "Chicago",
      "country": "USA",
      "county": "Cook",
      "county_needed_for_uniq": false,
      "lat": 41.78052,
      "line": "6244 S King Dr",
      "long": -87.61611,
      "postal_code": "60637",
      "state_code": "IL",
      "state": "Illinois",
      "time_zone": "America/Chicago"
    },
    "prop_status": "for_rent",
    "price": 535,
    "beds": "S",
    "baths": "1",
    "area": "250+ sq ft",
    "image": "https://ar.rdcpix.com/af501064fb3a05a2ac5af70209562ddfc-f96250950o.jpg",
    "name": "6246 S. King Dr.",
    "checkIn": "2022-07-14"
  },
  {
    "property_id": "9657796015",
    "listing_id": "2938716036",
    "prop_type": "condo",
    "address": "Rent 2 Reestablish in Auburn Gresham, O, 60620",
    "address_full": {
      "city": "O",
      "country": "USA",
      "county": "Cook",
      "county_needed_for_uniq": false,
      "lat": 41.7470143,
      "line": "Rent 2 Reestablish",
      "long": -87.6679765,
      "postal_code": "60620",
      "state_code": "IL",
      "state": "Illinois",
      "time_zone": "America/Chicago"
    },
    "prop_status": "for_rent",
    "price": 100,
    "beds": "S",
    "baths": "1",
    "area": "sq ft N/A",
    "image": "https://ap.rdcpix.com/ec5a94fb7fcb42d3294802be6100689el-m4186126570o.jpg",
    "name": "condo for rent",
    "checkIn": "2022-07-15"
  },
  {
    "property_id": "7454967667",
    "listing_id": "603606039",
    "prop_type": "apartment",
    "address": "5114 5118 S Kimbark Ave in Hyde Park Kenwood Historic District, Chicago, 60615",
    "address_full": {
      "city": "Chicago",
      "country": "USA",
      "county": "Cook",
      "county_needed_for_uniq": false,
      "lat": 41.801703,
      "line": "5114 5118 S Kimbark Ave",
      "long": -87.595093,
      "postal_code": "60615",
      "state_code": "IL",
      "state": "Illinois",
      "time_zone": "America/Chicago"
    },
    "prop_status": "for_rent",
    "price": 175,
    "beds": "S-1",
    "baths": "0-1",
    "area": "N/A sq ft",
    "image": "https://ar.rdcpix.com/ab23baa83454f40a291ef40f83830b09c-f3837329890o.jpg",
    "name": "Ettinger Realty, Ltd",
    "checkIn": "2022-07-12"
  },
  {
    "property_id": "9038084162",
    "listing_id": "2944186621",
    "prop_type": "condo",
    "address": "2251 S Michigan Ave Unit 205F in Near South Side, Chicago, 60616",
    "address_full": {
      "city": "Chicago",
      "country": "USA",
      "county": "Cook",
      "county_needed_for_uniq": false,
      "lat": 41.851417,
      "line": "2251 S Michigan Ave Unit 205F",
      "long": -87.623327,
      "postal_code": "60616",
      "state_code": "IL",
      "state": "Illinois",
      "time_zone": "America/Chicago"
    },
    "prop_status": "for_rent",
    "price": 400,
    "beds": "S",
    "baths": "1",
    "area": "200 sq ft",
    "image": "https://ap.rdcpix.com/11b44c7e953f5793c2d6a7192a83f5e1l-m2718460297o.jpg",
    "name": "condo for rent",
    "checkIn": "2022-07-20"
  },
  {
    "property_id": "9656211627",
    "listing_id": "2925190115",
    "prop_type": "other",
    "address": "400 N Clark St in River North, Clawson, 60654",
    "address_full": {
      "city": "Clawson",
      "country": "USA",
      "county": "Cook",
      "county_needed_for_uniq": false,
      "lat": 41.889413,
      "line": "400 N Clark St",
      "long": -87.631358,
      "postal_code": "60654",
      "state_code": "IL",
      "state": "Illinois",
      "time_zone": "America/Chicago"
    },
    "prop_status": "for_rent",
    "price": 400,
    "beds": "1-2",
    "baths": "1",
    "area": "N/A sq ft",
    "image": "https://ar.rdcpix.com/14f53b24026a88dd7b223fab1614074bc-f394638694o.jpg",
    "name": "Maple View Apartments",
    "checkIn": "2022-07-20"
  },
  {
    "property_id": "7757677695",
    "listing_id": "642871303",
    "prop_type": "single_family",
    "address": "2246 S Ridgeway Ave in South Lawndale, Chicago, 60623",
    "address_full": {
      "city": "Chicago",
      "country": "USA",
      "county": "Cook",
      "county_needed_for_uniq": false,
      "lat": 41.850258,
      "line": "2246 S Ridgeway Ave",
      "long": -87.718994,
      "postal_code": "60623",
      "state_code": "IL",
      "state": "Illinois",
      "time_zone": "America/Chicago"
    },
    "prop_status": "for_rent",
    "price": 400,
    "beds": "S",
    "baths": "Call",
    "area": "sq ft N/A",
    "image": "https://ap.rdcpix.com/99ab60458ad1057d3fd9d7f2bea9c40fl-m2997465358o.jpg",
    "name": "single_family for rent",
    "checkIn": "2022-07-12"
  },
  {
    "property_id": "7761627885",
    "listing_id": "642825975",
    "prop_type": "single_family",
    "address": "2238 S Ridgeway Ave in South Lawndale, Chicago, 60623",
    "address_full": {
      "city": "Chicago",
      "country": "USA",
      "county": "Cook",
      "county_needed_for_uniq": false,
      "lat": 41.850393,
      "line": "2238 S Ridgeway Ave",
      "long": -87.718971,
      "postal_code": "60623",
      "state_code": "IL",
      "state": "Illinois",
      "time_zone": "America/Chicago"
    },
    "prop_status": "for_rent",
    "price": 450,
    "beds": "S",
    "baths": "Call",
    "area": "sq ft N/A",
    "image": "https://ap.rdcpix.com/3cc87ed7463b06ec69ceda5efc95f045l-m3600300294o.jpg",
    "name": "single_family for rent",
    "checkIn": "2022-07-13"
  },
  {
    "property_id": "9650649557",
    "listing_id": "2937180695",
    "prop_type": "condo",
    "address": "1750 E 87th St in Stony Island Park, Chicago, 60617",
    "address_full": {
      "city": "Chicago",
      "country": "USA",
      "county": "Cook",
      "county_needed_for_uniq": false,
      "lat": 41.737244,
      "line": "1750 E 87th St",
      "long": -87.58081,
      "postal_code": "60617",
      "state_code": "IL",
      "state": "Illinois",
      "time_zone": "America/Chicago"
    },
    "prop_status": "for_rent",
    "price": 525,
    "beds": "S",
    "baths": "Call",
    "area": "420 sq ft",
    "image": "https://ap.rdcpix.com/3b8f3a61f9278ba0248128b5fce971afl-m4163094932o.jpg",
    "name": "condo for rent",
    "checkIn": "2022-07-14"
  },
  {
    "property_id": "7386507196",
    "listing_id": "607798379",
    "prop_type": "apartment",
    "address": "6244 S King Dr in Washington Park, Chicago, 60637",
    "address_full": {
      "city": "Chicago",
      "country": "USA",
      "county": "Cook",
      "county_needed_for_uniq": false,
      "lat": 41.78052,
      "line": "6244 S King Dr",
      "long": -87.61611,
      "postal_code": "60637",
      "state_code": "IL",
      "state": "Illinois",
      "time_zone": "America/Chicago"
    },
    "prop_status": "for_rent",
    "price": 535,
    "beds": "S",
    "baths": "1",
    "area": "250+ sq ft",
    "image": "https://ar.rdcpix.com/af501064fb3a05a2ac5af70209562ddfc-f96250950o.jpg",
    "name": "6246 S. King Dr.",
    "checkIn": "2022-07-12"
  },
  {
    "property_id": "9618990615",
    "listing_id": "2938532404",
    "prop_type": "single_family",
    "address": "2220 Del Mar Heights Rd Unit Bedroom in Del Mar Heights, Del Mar, 92014",
    "address_full": {
      "city": "Del Mar",
      "country": "USA",
      "county": "San Diego",
      "county_needed_for_uniq": false,
      "lat": 32.949442,
      "line": "2220 Del Mar Heights Rd Unit Bedroom",
      "long": -117.2575,
      "postal_code": "92014",
      "state_code": "CA",
      "state": "California",
      "time_zone": "America/Los_Angeles"
    },
    "prop_status": "for_rent",
    "price": 1495,
    "beds": "1",
    "baths": "1",
    "area": "168 sq ft",
    "image": "https://ap.rdcpix.com/3a6539f1e0d57f2438c45ac1f536b78el-m2655946780o.jpg",
    "name": "single_family for rent",
    "checkIn": "2022-07-18"
  },
  {
    "property_id": "1263077047",
    "listing_id": "2941161707",
    "prop_type": "single_family",
    "address": "722 Peggy Dr in Jamacha, San Diego, 92114",
    "address_full": {
      "city": "San Diego",
      "country": "USA",
      "county": "San Diego",
      "county_needed_for_uniq": false,
      "lat": 32.713768,
      "line": "722 Peggy Dr",
      "long": -117.039021,
      "postal_code": "92114",
      "state_code": "CA",
      "state": "California",
      "time_zone": "America/Los_Angeles"
    },
    "prop_status": "for_rent",
    "price": 1500,
    "beds": "S",
    "baths": "1",
    "area": "380 sq ft",
    "image": "https://ap.rdcpix.com/0a1e7686d802ced3c2fc37255ba9be7al-m1021831639o.jpg",
    "name": "single_family for rent",
    "checkIn": "2022-07-19"
  },
  {
    "property_id": "2122463798",
    "listing_id": "619227340",
    "prop_type": "single_family",
    "address": "6650 Amherst St Unit 5A in Rolando, San Diego, 92115",
    "address_full": {
      "city": "San Diego",
      "country": "USA",
      "county": "San Diego",
      "county_needed_for_uniq": false,
      "lat": 32.7669,
      "line": "6650 Amherst St Unit 5A",
      "long": -117.055241,
      "postal_code": "92115",
      "state_code": "CA",
      "state": "California",
      "time_zone": "America/Los_Angeles"
    },
    "prop_status": "for_rent",
    "price": 1800,
    "beds": "1",
    "baths": "1",
    "area": "480 sq ft",
    "image": "https://ap.rdcpix.com/39a9b595553c362e79e3381eb8423418l-m2468302810o.jpg",
    "name": "single_family for rent",
    "checkIn": "2022-07-20"
  },
  {
    "property_id": "2559607183",
    "listing_id": "607676828",
    "prop_type": "single_family",
    "address": "6930 Hyde Park Dr Unit 321 in San Carlos, San Diego, 92119",
    "address_full": {
      "city": "San Diego",
      "country": "USA",
      "county": "San Diego",
      "county_needed_for_uniq": false,
      "lat": 32.802483,
      "line": "6930 Hyde Park Dr Unit 321",
      "long": -117.047304,
      "postal_code": "92119",
      "state_code": "CA",
      "state": "California",
      "time_zone": "America/Los_Angeles"
    },
    "prop_status": "for_rent",
    "price": 1995,
    "beds": "1",
    "baths": "1",
    "area": "688 sq ft",
    "image": "https://ap.rdcpix.com/6d91e2d63e84ae69ccf41a6d1aaa18dal-m3814462689o.jpg",
    "name": "single_family for rent",
    "checkIn": "2022-07-15"
  },
  {
    "property_id": "1240722493",
    "listing_id": "2929344782",
    "prop_type": "single_family",
    "address": "4404 Bond St Unit H in Pacific Beach, San Diego, 92109",
    "address_full": {
      "city": "San Diego",
      "country": "USA",
      "county": "San Diego",
      "county_needed_for_uniq": false,
      "lat": 32.802554,
      "line": "4404 Bond St Unit H",
      "long": -117.220455,
      "postal_code": "92109",
      "state_code": "CA",
      "state": "California",
      "time_zone": "America/Los_Angeles"
    },
    "prop_status": "for_rent",
    "price": 2100,
    "beds": "1",
    "baths": "1",
    "area": "593 sq ft",
    "image": "https://ap.rdcpix.com/3ac4090a8f955971653ccb2c9c717de2l-m2745803738o.jpg",
    "name": "single_family for rent",
    "checkIn": "2022-07-15"
  },
  {
    "property_id": "1532778896",
    "listing_id": "2401203755",
    "prop_type": "single_family",
    "address": "5645 Friars Rd Unit 372 in Mission Valley West, San Diego, 92110",
    "address_full": {
      "city": "San Diego",
      "country": "USA",
      "county": "San Diego",
      "county_needed_for_uniq": false,
      "lat": 32.763545,
      "line": "5645 Friars Rd Unit 372",
      "long": -117.19009,
      "postal_code": "92110",
      "state_code": "CA",
      "state": "California",
      "time_zone": "America/Los_Angeles"
    },
    "prop_status": "for_rent",
    "price": 2175,
    "beds": "1",
    "baths": "1",
    "area": "695 sq ft",
    "image": "https://ap.rdcpix.com/f035437bda29d787a63cf1b826b70a21l-m1800172560o.jpg",
    "name": "single_family for rent",
    "checkIn": "2022-07-15"
  },
  {
    "property_id": "2528819521",
    "listing_id": "2944730328",
    "prop_type": "single_family",
    "address": "3907 Georgia St Apt 1 in North Park, San Diego, 92103",
    "address_full": {
      "city": "San Diego",
      "country": "USA",
      "county": "San Diego",
      "county_needed_for_uniq": false,
      "lat": 32.748737,
      "line": "3907 Georgia St Apt 1",
      "long": -117.144611,
      "postal_code": "92103",
      "state_code": "CA",
      "state": "California",
      "time_zone": "America/Los_Angeles"
    },
    "prop_status": "for_rent",
    "price": 2295,
    "beds": "1",
    "baths": "1",
    "area": "650 sq ft",
    "image": "https://ap.rdcpix.com/3df7d0fff3856a74844e3e0c940a9a95l-m757349752o.jpg",
    "name": "single_family for rent",
    "checkIn": "2022-07-20"
  },
  {
    "property_id": "1003751576",
    "listing_id": "608116480",
    "prop_type": "single_family",
    "address": "9269 Village Glen Dr Unit 128 in Serra Mesa, San Diego, 92123",
    "address_full": {
      "city": "San Diego",
      "country": "USA",
      "county": "San Diego",
      "county_needed_for_uniq": false,
      "lat": 32.804448,
      "line": "9269 Village Glen Dr Unit 128",
      "long": -117.129667,
      "postal_code": "92123",
      "state_code": "CA",
      "state": "California",
      "time_zone": "America/Los_Angeles"
    },
    "prop_status": "for_rent",
    "price": 2300,
    "beds": "2",
    "baths": "1",
    "area": "1,000 sq ft",
    "image": "https://ap.rdcpix.com/77ac495b2a04d89405d3660d2c8a0e5fl-m1358631870o.jpg",
    "name": "single_family for rent",
    "checkIn": "2022-07-21"
  },
  {
    "property_id": "2313456673",
    "listing_id": "609999568",
    "prop_type": "apartment",
    "address": "2073-79 Emerald St in Pacific Beach, San Diego, 92109",
    "address_full": {
      "city": "San Diego",
      "country": "USA",
      "county": "San Diego",
      "county_needed_for_uniq": false,
      "lat": 32.803359,
      "line": "2073-79 Emerald St",
      "long": -117.232377,
      "postal_code": "92109",
      "state_code": "CA",
      "state": "California",
      "time_zone": "America/Los_Angeles"
    },
    "prop_status": "for_rent",
    "price": 250,
    "beds": "S",
    "baths": "0",
    "area": "N/A sq ft",
    "image": "https://ar.rdcpix.com/c45584f1718d4cd5cd588d9c89f01d2ac-f3681216645o.jpg",
    "name": "TORREY PINES PROPERTY MGMT., INC.",
    "checkIn": "2022-07-10"
  },
  {
    "property_id": "9133539664",
    "listing_id": "2944549117",
    "prop_type": "apartment",
    "address": "2073 Emerald St Unit GARAGE2079 in Pacific Beach, San Diego, 92109",
    "address_full": {
      "city": "San Diego",
      "country": "USA",
      "county": "San Diego",
      "county_needed_for_uniq": false,
      "lat": 32.803359,
      "line": "2073 Emerald St Unit GARAGE2079",
      "long": -117.232377,
      "postal_code": "92109",
      "state_code": "CA",
      "state": "California",
      "time_zone": "America/Los_Angeles"
    },
    "prop_status": "for_rent",
    "price": 250,
    "beds": "S",
    "baths": "Call",
    "area": "sq ft N/A",
    "image": "https://ap.rdcpix.com/93eed63c8091e82b333d9747c8d31b9dl-m1285640907o.jpg",
    "name": "apartment for rent",
    "checkIn": "2022-07-09"
  },
  {
    "property_id": "1242820177",
    "listing_id": "592841304",
    "prop_type": "apartment",
    "address": "3172 1st Avenue 105 Spruce in Bunker Hill - Park West, San Diego, 92103",
    "address_full": {
      "city": "San Diego",
      "country": "USA",
      "county": "San Diego",
      "county_needed_for_uniq": false,
      "lat": 32.738438,
      "line": "3172 1st Avenue 105 Spruce",
      "long": -117.164279,
      "postal_code": "92103",
      "state_code": "CA",
      "state": "California",
      "time_zone": "America/Los_Angeles"
    },
    "prop_status": "for_rent",
    "price": 275,
    "beds": "S",
    "baths": "0",
    "area": "N/A sq ft",
    "image": "https://ar.rdcpix.com/a0eb329176a792e6551338d46614bed7c-f4212123400o.jpg",
    "name": "Strat Property Management, Inc.",
    "checkIn": "2022-07-16"
  },
  {
    "property_id": "1657811114",
    "listing_id": "592656928",
    "prop_type": "apartment",
    "address": "5595 Lindo Paseo in College West, San Diego, 92115",
    "address_full": {
      "city": "San Diego",
      "country": "USA",
      "county": "San Diego",
      "county_needed_for_uniq": false,
      "lat": 32.77148,
      "line": "5595 Lindo Paseo",
      "long": -117.07458,
      "postal_code": "92115",
      "state_code": "CA",
      "state": "California",
      "time_zone": "America/Los_Angeles"
    },
    "prop_status": "for_rent",
    "price": 775,
    "beds": "1",
    "baths": "1-1.5",
    "area": "173+ sq ft",
    "image": "https://ar.rdcpix.com/bd70b4a43b8cf2a3b8d9ebf54c54bd01c-f1634917309o.jpg",
    "name": "The Suites on Paseo (Off Campus Housing)",
    "checkIn": "2022-07-08"
  },
  {
    "property_id": "9113601739",
    "listing_id": "2922057483",
    "prop_type": "other",
    "address": "4070 Centre St in Hillcrest, San Diego, 92103",
    "address_full": {
      "city": "San Diego",
      "country": "USA",
      "county": "San Diego",
      "county_needed_for_uniq": false,
      "lat": 32.751944,
      "line": "4070 Centre St",
      "long": -117.147016,
      "postal_code": "92103",
      "state_code": "CA",
      "state": "California",
      "time_zone": "America/Los_Angeles"
    },
    "prop_status": "for_rent",
    "price": 825,
    "beds": "S",
    "baths": "0",
    "area": "N/A sq ft",
    "image": "https://ar.rdcpix.com/c44b8324a36b82797634da59ec8e1365c-f1886246801o.jpg",
    "name": "Amethyst Landing Recovery Residence",
    "checkIn": "2022-07-12"
  },
  {
    "property_id": "1714466505",
    "listing_id": "598432184",
    "prop_type": "apartment",
    "address": "4040-4080 Hancock St in Midway District, San Diego, 92110",
    "address_full": {
      "city": "San Diego",
      "country": "USA",
      "county": "San Diego",
      "county_needed_for_uniq": false,
      "lat": 32.75578,
      "line": "4040-4080 Hancock St",
      "long": -117.21724,
      "postal_code": "92110",
      "state_code": "CA",
      "state": "California",
      "time_zone": "America/Los_Angeles"
    },
    "prop_status": "for_rent",
    "price": 907,
    "beds": "S-1",
    "baths": "1",
    "area": "400+ sq ft",
    "image": "https://ar.rdcpix.com/2ebc052c3befe22f13a7e56820577fc7c-f3609187331o.jpg",
    "name": "The Orchard Active Senior Living 55+",
    "checkIn": "2022-07-09"
  },
  {
    "property_id": "1385343486",
    "listing_id": "2921291195",
    "prop_type": "other",
    "address": "10757 Parkdale Ave in Mira Mesa West, San Diego, 92126",
    "address_full": {
      "city": "San Diego",
      "country": "USA",
      "county": "San Diego",
      "county_needed_for_uniq": false,
      "lat": 32.911016,
      "line": "10757 Parkdale Ave",
      "long": -117.155531,
      "postal_code": "92126",
      "state_code": "CA",
      "state": "California",
      "time_zone": "America/Los_Angeles"
    },
    "prop_status": "for_rent",
    "price": 925,
    "beds": "1",
    "baths": "1",
    "area": "111 sq ft",
    "image": "https://ar.rdcpix.com/a19e0cc31fb787bad2f8697ede158707c-f37063815o.jpg",
    "name": "Private Bedroom in Beautiful Mira Mesa Home With Lovely Backyard",
    "checkIn": "2022-07-20"
  },
  {
    "property_id": "1079800326",
    "listing_id": "619872384",
    "prop_type": "apartment",
    "address": "1903 1923 K St in Sherman Heights, San Diego, 92102",
    "address_full": {
      "city": "San Diego",
      "country": "USA",
      "county": "San Diego",
      "county_needed_for_uniq": false,
      "lat": 32.708172,
      "line": "1903 1923 K St",
      "long": -117.146489,
      "postal_code": "92102",
      "state_code": "CA",
      "state": "California",
      "time_zone": "America/Los_Angeles"
    },
    "prop_status": "for_rent",
    "price": 1050,
    "beds": "1",
    "baths": "1",
    "area": "108+ sq ft",
    "image": "https://ar.rdcpix.com/fbf391a19c7daf41a9226f4a37a82bcdc-f397635165o.jpg",
    "name": "LivingQ",
    "checkIn": "2022-07-11"
  },
  {
    "property_id": "2313456673",
    "listing_id": "609999568",
    "prop_type": "apartment",
    "address": "2073-79 Emerald St in Pacific Beach, San Diego, 92109",
    "address_full": {
      "city": "San Diego",
      "country": "USA",
      "county": "San Diego",
      "county_needed_for_uniq": false,
      "lat": 32.803359,
      "line": "2073-79 Emerald St",
      "long": -117.232377,
      "postal_code": "92109",
      "state_code": "CA",
      "state": "California",
      "time_zone": "America/Los_Angeles"
    },
    "prop_status": "for_rent",
    "price": 250,
    "beds": "S",
    "baths": "0",
    "area": "N/A sq ft",
    "image": "https://ar.rdcpix.com/c45584f1718d4cd5cd588d9c89f01d2ac-f3681216645o.jpg",
    "name": "TORREY PINES PROPERTY MGMT., INC.",
    "checkIn": "2022-07-19"
  },
  {
    "property_id": "9133539664",
    "listing_id": "2944549117",
    "prop_type": "apartment",
    "address": "2073 Emerald St Unit GARAGE2079 in Pacific Beach, San Diego, 92109",
    "address_full": {
      "city": "San Diego",
      "country": "USA",
      "county": "San Diego",
      "county_needed_for_uniq": false,
      "lat": 32.803359,
      "line": "2073 Emerald St Unit GARAGE2079",
      "long": -117.232377,
      "postal_code": "92109",
      "state_code": "CA",
      "state": "California",
      "time_zone": "America/Los_Angeles"
    },
    "prop_status": "for_rent",
    "price": 250,
    "beds": "S",
    "baths": "Call",
    "area": "sq ft N/A",
    "image": "https://ap.rdcpix.com/93eed63c8091e82b333d9747c8d31b9dl-m1285640907o.jpg",
    "name": "apartment for rent",
    "checkIn": "2022-07-15"
  },
  {
    "property_id": "1242820177",
    "listing_id": "592841304",
    "prop_type": "apartment",
    "address": "3172 1st Avenue 105 Spruce in Bunker Hill - Park West, San Diego, 92103",
    "address_full": {
      "city": "San Diego",
      "country": "USA",
      "county": "San Diego",
      "county_needed_for_uniq": false,
      "lat": 32.738438,
      "line": "3172 1st Avenue 105 Spruce",
      "long": -117.164279,
      "postal_code": "92103",
      "state_code": "CA",
      "state": "California",
      "time_zone": "America/Los_Angeles"
    },
    "prop_status": "for_rent",
    "price": 275,
    "beds": "S",
    "baths": "0",
    "area": "N/A sq ft",
    "image": "https://ar.rdcpix.com/a0eb329176a792e6551338d46614bed7c-f4212123400o.jpg",
    "name": "Strat Property Management, Inc.",
    "checkIn": "2022-07-08"
  },
  {
    "property_id": "1657811114",
    "listing_id": "592656928",
    "prop_type": "apartment",
    "address": "5595 Lindo Paseo in College West, San Diego, 92115",
    "address_full": {
      "city": "San Diego",
      "country": "USA",
      "county": "San Diego",
      "county_needed_for_uniq": false,
      "lat": 32.77148,
      "line": "5595 Lindo Paseo",
      "long": -117.07458,
      "postal_code": "92115",
      "state_code": "CA",
      "state": "California",
      "time_zone": "America/Los_Angeles"
    },
    "prop_status": "for_rent",
    "price": 775,
    "beds": "1",
    "baths": "1-1.5",
    "area": "173+ sq ft",
    "image": "https://ar.rdcpix.com/bd70b4a43b8cf2a3b8d9ebf54c54bd01c-f1634917309o.jpg",
    "name": "The Suites on Paseo (Off Campus Housing)",
    "checkIn": "2022-07-12"
  },
  {
    "property_id": "9113601739",
    "listing_id": "2922057483",
    "prop_type": "other",
    "address": "4070 Centre St in Hillcrest, San Diego, 92103",
    "address_full": {
      "city": "San Diego",
      "country": "USA",
      "county": "San Diego",
      "county_needed_for_uniq": false,
      "lat": 32.751944,
      "line": "4070 Centre St",
      "long": -117.147016,
      "postal_code": "92103",
      "state_code": "CA",
      "state": "California",
      "time_zone": "America/Los_Angeles"
    },
    "prop_status": "for_rent",
    "price": 825,
    "beds": "S",
    "baths": "0",
    "area": "N/A sq ft",
    "image": "https://ar.rdcpix.com/c44b8324a36b82797634da59ec8e1365c-f1886246801o.jpg",
    "name": "Amethyst Landing Recovery Residence",
    "checkIn": "2022-07-17"
  },
  {
    "property_id": "1714466505",
    "listing_id": "598432184",
    "prop_type": "apartment",
    "address": "4040-4080 Hancock St in Midway District, San Diego, 92110",
    "address_full": {
      "city": "San Diego",
      "country": "USA",
      "county": "San Diego",
      "county_needed_for_uniq": false,
      "lat": 32.75578,
      "line": "4040-4080 Hancock St",
      "long": -117.21724,
      "postal_code": "92110",
      "state_code": "CA",
      "state": "California",
      "time_zone": "America/Los_Angeles"
    },
    "prop_status": "for_rent",
    "price": 907,
    "beds": "S-1",
    "baths": "1",
    "area": "400+ sq ft",
    "image": "https://ar.rdcpix.com/2ebc052c3befe22f13a7e56820577fc7c-f3609187331o.jpg",
    "name": "The Orchard Active Senior Living 55+",
    "checkIn": "2022-07-08"
  },
  {
    "property_id": "1385343486",
    "listing_id": "2921291195",
    "prop_type": "other",
    "address": "10757 Parkdale Ave in Mira Mesa West, San Diego, 92126",
    "address_full": {
      "city": "San Diego",
      "country": "USA",
      "county": "San Diego",
      "county_needed_for_uniq": false,
      "lat": 32.911016,
      "line": "10757 Parkdale Ave",
      "long": -117.155531,
      "postal_code": "92126",
      "state_code": "CA",
      "state": "California",
      "time_zone": "America/Los_Angeles"
    },
    "prop_status": "for_rent",
    "price": 925,
    "beds": "1",
    "baths": "1",
    "area": "111 sq ft",
    "image": "https://ar.rdcpix.com/a19e0cc31fb787bad2f8697ede158707c-f37063815o.jpg",
    "name": "Private Bedroom in Beautiful Mira Mesa Home With Lovely Backyard",
    "checkIn": "2022-07-16"
  },
  {
    "property_id": "1079800326",
    "listing_id": "619872384",
    "prop_type": "apartment",
    "address": "1903 1923 K St in Sherman Heights, San Diego, 92102",
    "address_full": {
      "city": "San Diego",
      "country": "USA",
      "county": "San Diego",
      "county_needed_for_uniq": false,
      "lat": 32.708172,
      "line": "1903 1923 K St",
      "long": -117.146489,
      "postal_code": "92102",
      "state_code": "CA",
      "state": "California",
      "time_zone": "America/Los_Angeles"
    },
    "prop_status": "for_rent",
    "price": 1050,
    "beds": "1",
    "baths": "1",
    "area": "108+ sq ft",
    "image": "https://ar.rdcpix.com/fbf391a19c7daf41a9226f4a37a82bcdc-f397635165o.jpg",
    "name": "LivingQ",
    "checkIn": "2022-07-20"
  },
  {
    "property_id": "9302810158",
    "listing_id": "2943151651",
    "prop_type": "single_family",
    "address": "Louisburg St in San Miguel, San Francisco, 94112",
    "address_full": {
      "city": "San Francisco",
      "country": "USA",
      "county": "San Francisco",
      "county_needed_for_uniq": false,
      "lat": 37.7201701,
      "line": "Louisburg St",
      "long": -122.4503403,
      "postal_code": "94112",
      "state_code": "CA",
      "state": "California",
      "time_zone": "America/Los_Angeles"
    },
    "prop_status": "for_rent",
    "price": 1200,
    "beds": "1",
    "baths": "1",
    "area": "180 sq ft",
    "image": "https://ap.rdcpix.com/e2af022accbe4a6191a130841798423el-m1839574889o.jpg",
    "name": "single_family for rent",
    "checkIn": "2022-07-08"
  },
  {
    "property_id": "1069268650",
    "listing_id": "2940645508",
    "prop_type": "single_family",
    "address": "106 Sargent St in Ingleside Heights, San Francisco, 94132",
    "address_full": {
      "city": "San Francisco",
      "country": "USA",
      "county": "San Francisco",
      "county_needed_for_uniq": false,
      "lat": 37.716317,
      "line": "106 Sargent St",
      "long": -122.463757,
      "postal_code": "94132",
      "state_code": "CA",
      "state": "California",
      "time_zone": "America/Los_Angeles"
    },
    "prop_status": "for_rent",
    "price": 1200,
    "beds": "1",
    "baths": "1",
    "area": "sq ft N/A",
    "image": "https://ap.rdcpix.com/e953d514af9edcb88855d4e0bcd803abl-m225103546o.jpg",
    "name": "single_family for rent",
    "checkIn": "2022-07-08"
  },
  {
    "property_id": "9390165638",
    "listing_id": "2944597098",
    "prop_type": "single_family",
    "address": "536 Mason St Apt 402 in Downtown San Francisco-Union Square, San Francisco, 94102",
    "address_full": {
      "city": "San Francisco",
      "country": "USA",
      "county": "San Francisco",
      "county_needed_for_uniq": false,
      "lat": 37.788635,
      "line": "536 Mason St Apt 402",
      "long": -122.409914,
      "postal_code": "94102",
      "state_code": "CA",
      "state": "California",
      "time_zone": "America/Los_Angeles"
    },
    "prop_status": "for_rent",
    "price": 1350,
    "beds": "S",
    "baths": "1",
    "area": "sq ft N/A",
    "image": "https://ap.rdcpix.com/c93a63b87aecd0309e9b9e19c2306686l-m318484164o.jpg",
    "name": "single_family for rent",
    "checkIn": "2022-07-17"
  },
  {
    "property_id": "9155343355",
    "listing_id": "2943401709",
    "prop_type": "single_family",
    "address": "536 Mason St Apt 502 in Downtown San Francisco-Union Square, San Francisco, 94102",
    "address_full": {
      "city": "San Francisco",
      "country": "USA",
      "county": "San Francisco",
      "county_needed_for_uniq": false,
      "lat": 37.788635,
      "line": "536 Mason St Apt 502",
      "long": -122.409914,
      "postal_code": "94102",
      "state_code": "CA",
      "state": "California",
      "time_zone": "America/Los_Angeles"
    },
    "prop_status": "for_rent",
    "price": 1350,
    "beds": "S",
    "baths": "1",
    "area": "sq ft N/A",
    "image": "https://ap.rdcpix.com/f986ce3d3c4d2769d907059e2ebd15c2l-m1876189255o.jpg",
    "name": "single_family for rent",
    "checkIn": "2022-07-13"
  },
  {
    "property_id": "9983703583",
    "listing_id": "2944856268",
    "prop_type": "single_family",
    "address": "306 Victoria St Unit 1 in Ingleside Heights, San Francisco, 94132",
    "address_full": {
      "city": "San Francisco",
      "country": "USA",
      "county": "San Francisco",
      "county_needed_for_uniq": false,
      "lat": 37.716309,
      "line": "306 Victoria St Unit 1",
      "long": -122.465047,
      "postal_code": "94132",
      "state_code": "CA",
      "state": "California",
      "time_zone": "America/Los_Angeles"
    },
    "prop_status": "for_rent",
    "price": 1450,
    "beds": "1",
    "baths": "1",
    "area": "400 sq ft",
    "image": "https://ap.rdcpix.com/6ed47a836b2e9cc703cf1aa6ccbd7797l-m3368727898o.jpg",
    "name": "single_family for rent",
    "checkIn": "2022-07-17"
  },
  {
    "property_id": "2745286744",
    "listing_id": "2938629350",
    "prop_type": "single_family",
    "address": "85 Valdez Ave in Westwood Park, San Francisco, 94112",
    "address_full": {
      "city": "San Francisco",
      "country": "USA",
      "county": "San Francisco",
      "county_needed_for_uniq": false,
      "lat": 37.729813,
      "line": "85 Valdez Ave",
      "long": -122.455132,
      "postal_code": "94112",
      "state_code": "CA",
      "state": "California",
      "time_zone": "America/Los_Angeles"
    },
    "prop_status": "for_rent",
    "price": 1600,
    "beds": "1",
    "baths": "1",
    "area": "200 sq ft",
    "image": "https://ap.rdcpix.com/ccc5b6f32d78b4aa8ecbf194b4283584l-m2346916280o.jpg",
    "name": "single_family for rent",
    "checkIn": "2022-07-17"
  },
  {
    "property_id": "9283995367",
    "listing_id": "2590107558",
    "prop_type": "single_family",
    "address": "2552 Bush St in Lower Pacific Heights, San Francisco, 94115",
    "address_full": {
      "city": "San Francisco",
      "country": "USA",
      "county": "San Francisco",
      "county_needed_for_uniq": false,
      "lat": 37.786421,
      "line": "2552 Bush St",
      "long": -122.439314,
      "postal_code": "94115",
      "state_code": "CA",
      "state": "California",
      "time_zone": "America/Los_Angeles"
    },
    "prop_status": "for_rent",
    "price": 1600,
    "beds": "1",
    "baths": "1",
    "area": "240 sq ft",
    "image": "https://ap.rdcpix.com/3b5075fa7ba9e2ea6704a87ec442ec26l-m4247024613o.jpg",
    "name": "single_family for rent",
    "checkIn": "2022-07-10"
  },
  {
    "property_id": "2368178151",
    "listing_id": "2943480738",
    "prop_type": "single_family",
    "address": "1850 35th Ave in Outer Sunset, San Francisco, 94122",
    "address_full": {
      "city": "San Francisco",
      "country": "USA",
      "county": "San Francisco",
      "county_needed_for_uniq": false,
      "lat": 37.752534,
      "line": "1850 35th Ave",
      "long": -122.493223,
      "postal_code": "94122",
      "state_code": "CA",
      "state": "California",
      "time_zone": "America/Los_Angeles"
    },
    "prop_status": "for_rent",
    "price": 1700,
    "beds": "S",
    "baths": "1",
    "area": "sq ft N/A",
    "image": "https://ap.rdcpix.com/0450e1f5814fe5ccb305e69ad8b45969l-m3769399870o.jpg",
    "name": "single_family for rent",
    "checkIn": "2022-07-16"
  },
  {
    "property_id": "9086501635",
    "listing_id": "2939438114",
    "prop_type": "apartment",
    "address": "3901-3901 1/2 Folsom St, San Francisco, 94110",
    "address_full": {
      "city": "San Francisco",
      "country": "USA",
      "county": "San Francisco",
      "county_needed_for_uniq": false,
      "line": "3901-3901 1/2 Folsom St",
      "postal_code": "94110",
      "state_code": "CA",
      "state": "California",
      "long": -122.415374,
      "lat": 37.749817,
      "is_approximate": true,
      "time_zone": "America/Los_Angeles"
    },
    "prop_status": "for_rent",
    "price": 250,
    "beds": "S",
    "baths": "0",
    "area": "N/A sq ft",
    "image": "https://ar.rdcpix.com/460ed36b5d7e730fe85233732b49c0fac-f1213672610o.jpg",
    "name": "Progressive Property Group, Inc.",
    "checkIn": "2022-07-15"
  },
  {
    "property_id": "9588384808",
    "listing_id": "2917097761",
    "prop_type": "apartment",
    "address": "124 Waverly Pl in Chinatown, San Francisco, 94108",
    "address_full": {
      "city": "San Francisco",
      "country": "USA",
      "county": "San Francisco",
      "county_needed_for_uniq": false,
      "lat": 37.794622,
      "line": "124 Waverly Pl",
      "long": -122.406738,
      "postal_code": "94108",
      "state_code": "CA",
      "state": "California",
      "time_zone": "America/Los_Angeles"
    },
    "prop_status": "for_rent",
    "price": 925,
    "beds": "S",
    "baths": "0",
    "area": "165 sq ft",
    "image": "https://ar.rdcpix.com/395dacc64a688ad8c9c44a497a861f17c-f3209338706o.jpg",
    "name": "Structure Properties, Inc",
    "checkIn": "2022-07-14"
  },
  {
    "property_id": "2926025828",
    "listing_id": "2919310923",
    "prop_type": "apartment",
    "address": "851 California St in Nob Hill, San Francisco, 94108",
    "address_full": {
      "city": "San Francisco",
      "country": "USA",
      "county": "San Francisco",
      "county_needed_for_uniq": false,
      "lat": 37.79184,
      "line": "851 California St",
      "long": -122.408479,
      "postal_code": "94108",
      "state_code": "CA",
      "state": "California",
      "time_zone": "America/Los_Angeles"
    },
    "prop_status": "for_rent",
    "price": 950,
    "beds": "1",
    "baths": "1",
    "area": "110+ sq ft",
    "image": "https://ar.rdcpix.com/59fe8e2f5d69bc8efbf1d26d31ac52fac-f3318646584o.jpg",
    "name": "FOUND Nob Hill",
    "checkIn": "2022-07-13"
  },
  {
    "property_id": "9854376106",
    "listing_id": "2726122958",
    "prop_type": "apartment",
    "address": "16 Turk St in Tenderloin, San Francisco, 94102",
    "address_full": {
      "city": "San Francisco",
      "country": "USA",
      "county": "San Francisco",
      "county_needed_for_uniq": false,
      "lat": 37.783499,
      "line": "16 Turk St",
      "long": -122.409393,
      "postal_code": "94102",
      "state_code": "CA",
      "state": "California",
      "time_zone": "America/Los_Angeles"
    },
    "prop_status": "for_rent",
    "price": 1050,
    "beds": "1",
    "baths": "1",
    "area": "215+ sq ft",
    "image": "https://ar.rdcpix.com/a0f88a9555610e1f74618b2678983155c-f3185541453o.jpg",
    "name": "FOUND Study San Francisco | Student Housing",
    "checkIn": "2022-07-09"
  },
  {
    "property_id": "2760484951",
    "listing_id": "598434240",
    "prop_type": "apartment",
    "address": "351 Turk St in Tenderloin, San Francisco, 94102",
    "address_full": {
      "city": "San Francisco",
      "country": "USA",
      "county": "San Francisco",
      "county_needed_for_uniq": false,
      "lat": 37.782462,
      "line": "351 Turk St",
      "long": -122.414706,
      "postal_code": "94102",
      "state_code": "CA",
      "state": "California",
      "time_zone": "America/Los_Angeles"
    },
    "prop_status": "for_rent",
    "price": 1095,
    "beds": "S",
    "baths": "1",
    "area": "133 sq ft",
    "image": "https://ar.rdcpix.com/4220e9da02bec00bee820220aef021cdc-f116931972o.jpg",
    "name": "Oasis Apartments",
    "checkIn": "2022-07-08"
  },
  {
    "property_id": "2758502945",
    "listing_id": "2920143462",
    "prop_type": "other",
    "address": "1738 Bush St in Cathedral Hill, San Francisco, 94109",
    "address_full": {
      "city": "San Francisco",
      "country": "USA",
      "county": "San Francisco",
      "county_needed_for_uniq": false,
      "lat": 37.788161,
      "line": "1738 Bush St",
      "long": -122.426035,
      "postal_code": "94109",
      "state_code": "CA",
      "state": "California",
      "time_zone": "America/Los_Angeles"
    },
    "prop_status": "for_rent",
    "price": 1100,
    "beds": "1",
    "baths": "1",
    "area": "161+ sq ft",
    "image": "https://ar.rdcpix.com/adfaa37fff63e6defe6c8dfbcac7d57ac-f1865602625o.jpg",
    "name": "Private Bedroom in Stunning Cathedral Hill Home by Lafayette Park",
    "checkIn": "2022-07-15"
  },
  {
    "property_id": "9453750971",
    "listing_id": "2931434642",
    "prop_type": "apartment",
    "address": "1314 43rd Ave in Outer Sunset, San Francisco, 94122",
    "address_full": {
      "city": "San Francisco",
      "country": "USA",
      "county": "San Francisco",
      "county_needed_for_uniq": false,
      "lat": 37.762093,
      "line": "1314 43rd Ave",
      "long": -122.502556,
      "postal_code": "94122",
      "state_code": "CA",
      "state": "California",
      "time_zone": "America/Los_Angeles"
    },
    "prop_status": "for_rent",
    "price": 1195,
    "beds": "1",
    "baths": "1",
    "area": "sq ft N/A",
    "image": "https://ap.rdcpix.com/bf3ae4692ae9bf0669ad37648a3b6620l-m3074907629o.jpg",
    "name": "apartment for rent",
    "checkIn": "2022-07-14"
  },
  {
    "property_id": "9427580527",
    "listing_id": "2944145162",
    "prop_type": "apartment",
    "address": "1314 43rd Ave Apt 1 in Outer Sunset, San Francisco, 94122",
    "address_full": {
      "city": "San Francisco",
      "country": "USA",
      "county": "San Francisco",
      "county_needed_for_uniq": false,
      "lat": 37.762093,
      "line": "1314 43rd Ave Apt 1",
      "long": -122.502661,
      "postal_code": "94122",
      "state_code": "CA",
      "state": "California",
      "time_zone": "America/Los_Angeles"
    },
    "prop_status": "for_rent",
    "price": 1195,
    "beds": "1",
    "baths": "1",
    "area": "500 sq ft",
    "image": "https://ap.rdcpix.com/365e1d31a33160b47ec1e5fadea65886l-m3178615171o.jpg",
    "name": "apartment for rent",
    "checkIn": "2022-07-16"
  },
  {
    "property_id": "9086501635",
    "listing_id": "2939438114",
    "prop_type": "apartment",
    "address": "3901-3901 1/2 Folsom St, San Francisco, 94110",
    "address_full": {
      "city": "San Francisco",
      "country": "USA",
      "county": "San Francisco",
      "county_needed_for_uniq": false,
      "line": "3901-3901 1/2 Folsom St",
      "postal_code": "94110",
      "state_code": "CA",
      "state": "California",
      "long": -122.415374,
      "lat": 37.749817,
      "is_approximate": true,
      "time_zone": "America/Los_Angeles"
    },
    "prop_status": "for_rent",
    "price": 250,
    "beds": "S",
    "baths": "0",
    "area": "N/A sq ft",
    "image": "https://ar.rdcpix.com/460ed36b5d7e730fe85233732b49c0fac-f1213672610o.jpg",
    "name": "Progressive Property Group, Inc.",
    "checkIn": "2022-07-20"
  },
  {
    "property_id": "9588384808",
    "listing_id": "2917097761",
    "prop_type": "apartment",
    "address": "124 Waverly Pl in Chinatown, San Francisco, 94108",
    "address_full": {
      "city": "San Francisco",
      "country": "USA",
      "county": "San Francisco",
      "county_needed_for_uniq": false,
      "lat": 37.794622,
      "line": "124 Waverly Pl",
      "long": -122.406738,
      "postal_code": "94108",
      "state_code": "CA",
      "state": "California",
      "time_zone": "America/Los_Angeles"
    },
    "prop_status": "for_rent",
    "price": 925,
    "beds": "S",
    "baths": "0",
    "area": "165 sq ft",
    "image": "https://ar.rdcpix.com/395dacc64a688ad8c9c44a497a861f17c-f3209338706o.jpg",
    "name": "Structure Properties, Inc",
    "checkIn": "2022-07-17"
  },
  {
    "property_id": "2926025828",
    "listing_id": "2919310923",
    "prop_type": "apartment",
    "address": "851 California St in Nob Hill, San Francisco, 94108",
    "address_full": {
      "city": "San Francisco",
      "country": "USA",
      "county": "San Francisco",
      "county_needed_for_uniq": false,
      "lat": 37.79184,
      "line": "851 California St",
      "long": -122.408479,
      "postal_code": "94108",
      "state_code": "CA",
      "state": "California",
      "time_zone": "America/Los_Angeles"
    },
    "prop_status": "for_rent",
    "price": 950,
    "beds": "1",
    "baths": "1",
    "area": "110+ sq ft",
    "image": "https://ar.rdcpix.com/59fe8e2f5d69bc8efbf1d26d31ac52fac-f3318646584o.jpg",
    "name": "FOUND Nob Hill",
    "checkIn": "2022-07-16"
  },
  {
    "property_id": "9854376106",
    "listing_id": "2726122958",
    "prop_type": "apartment",
    "address": "16 Turk St in Tenderloin, San Francisco, 94102",
    "address_full": {
      "city": "San Francisco",
      "country": "USA",
      "county": "San Francisco",
      "county_needed_for_uniq": false,
      "lat": 37.783499,
      "line": "16 Turk St",
      "long": -122.409393,
      "postal_code": "94102",
      "state_code": "CA",
      "state": "California",
      "time_zone": "America/Los_Angeles"
    },
    "prop_status": "for_rent",
    "price": 1050,
    "beds": "1",
    "baths": "1",
    "area": "215+ sq ft",
    "image": "https://ar.rdcpix.com/a0f88a9555610e1f74618b2678983155c-f3185541453o.jpg",
    "name": "FOUND Study San Francisco | Student Housing",
    "checkIn": "2022-07-18"
  },
  {
    "property_id": "2760484951",
    "listing_id": "598434240",
    "prop_type": "apartment",
    "address": "351 Turk St in Tenderloin, San Francisco, 94102",
    "address_full": {
      "city": "San Francisco",
      "country": "USA",
      "county": "San Francisco",
      "county_needed_for_uniq": false,
      "lat": 37.782462,
      "line": "351 Turk St",
      "long": -122.414706,
      "postal_code": "94102",
      "state_code": "CA",
      "state": "California",
      "time_zone": "America/Los_Angeles"
    },
    "prop_status": "for_rent",
    "price": 1095,
    "beds": "S",
    "baths": "1",
    "area": "133 sq ft",
    "image": "https://ar.rdcpix.com/4220e9da02bec00bee820220aef021cdc-f116931972o.jpg",
    "name": "Oasis Apartments",
    "checkIn": "2022-07-08"
  },
  {
    "property_id": "2758502945",
    "listing_id": "2920143462",
    "prop_type": "other",
    "address": "1738 Bush St in Cathedral Hill, San Francisco, 94109",
    "address_full": {
      "city": "San Francisco",
      "country": "USA",
      "county": "San Francisco",
      "county_needed_for_uniq": false,
      "lat": 37.788161,
      "line": "1738 Bush St",
      "long": -122.426035,
      "postal_code": "94109",
      "state_code": "CA",
      "state": "California",
      "time_zone": "America/Los_Angeles"
    },
    "prop_status": "for_rent",
    "price": 1100,
    "beds": "1",
    "baths": "1",
    "area": "161+ sq ft",
    "image": "https://ar.rdcpix.com/adfaa37fff63e6defe6c8dfbcac7d57ac-f1865602625o.jpg",
    "name": "Private Bedroom in Stunning Cathedral Hill Home by Lafayette Park",
    "checkIn": "2022-07-18"
  },
  {
    "property_id": "9453750971",
    "listing_id": "2931434642",
    "prop_type": "apartment",
    "address": "1314 43rd Ave in Outer Sunset, San Francisco, 94122",
    "address_full": {
      "city": "San Francisco",
      "country": "USA",
      "county": "San Francisco",
      "county_needed_for_uniq": false,
      "lat": 37.762093,
      "line": "1314 43rd Ave",
      "long": -122.502556,
      "postal_code": "94122",
      "state_code": "CA",
      "state": "California",
      "time_zone": "America/Los_Angeles"
    },
    "prop_status": "for_rent",
    "price": 1195,
    "beds": "1",
    "baths": "1",
    "area": "sq ft N/A",
    "image": "https://ap.rdcpix.com/bf3ae4692ae9bf0669ad37648a3b6620l-m3074907629o.jpg",
    "name": "apartment for rent",
    "checkIn": "2022-07-10"
  },
  {
    "property_id": "9427580527",
    "listing_id": "2944145162",
    "prop_type": "apartment",
    "address": "1314 43rd Ave Apt 1 in Outer Sunset, San Francisco, 94122",
    "address_full": {
      "city": "San Francisco",
      "country": "USA",
      "county": "San Francisco",
      "county_needed_for_uniq": false,
      "lat": 37.762093,
      "line": "1314 43rd Ave Apt 1",
      "long": -122.502661,
      "postal_code": "94122",
      "state_code": "CA",
      "state": "California",
      "time_zone": "America/Los_Angeles"
    },
    "prop_status": "for_rent",
    "price": 1195,
    "beds": "1",
    "baths": "1",
    "area": "500 sq ft",
    "image": "https://ap.rdcpix.com/365e1d31a33160b47ec1e5fadea65886l-m3178615171o.jpg",
    "name": "apartment for rent",
    "checkIn": "2022-07-21"
  }
]
